{
"type": "FeatureCollection",
"crs": { "type": "name", "properties": { "name": "urn:ogc:def:crs:OGC:1.3:CRS84" } },
                                                                                
"features": [
{ "type": "Feature", "properties": { "field_1": 0, "stop_sequence": 2, "stop_id": 1, "departure_time_am": "7:37:00", "departure_time_mid": "12:52:00", "departure_time_pm": "17:15:00", "stop_name": "Washington St opp Ruggles St", "stop_lat": 42.330957, "stop_lon": -71.082754 }, "geometry": { "type": "Point", "coordinates": [ -71.082754, 42.330957 ] } },
{ "type": "Feature", "properties": { "field_1": 1, "stop_sequence": 1, "stop_id": 64, "departure_time_am": "7:37:00", "departure_time_mid": "12:52:00", "departure_time_pm": "17:15:00", "stop_name": "Dudley Station", "stop_lat": 42.329789, "stop_lon": -71.083887 }, "geometry": { "type": "Point", "coordinates": [ -71.083887, 42.329789 ] } },
{ "type": "Feature", "properties": { "field_1": 2, "stop_sequence": 3, "stop_id": 2, "departure_time_am": "7:38:00", "departure_time_mid": "12:53:00", "departure_time_pm": "17:16:00", "stop_name": "Washington St @ Melnea Cass Blvd", "stop_lat": 42.332324, "stop_lon": -71.081252 }, "geometry": { "type": "Point", "coordinates": [ -71.081252, 42.332324 ] } },
{ "type": "Feature", "properties": { "field_1": 3, "stop_sequence": 4, "stop_id": 6, "departure_time_am": "7:39:00", "departure_time_mid": "12:54:00", "departure_time_pm": "17:17:00", "stop_name": "Melnea Cass Blvd @ Harrison Ave", "stop_lat": 42.332016, "stop_lon": -71.079576 }, "geometry": { "type": "Point", "coordinates": [ -71.079576, 42.332016 ] } },
{ "type": "Feature", "properties": { "field_1": 4, "stop_sequence": 5, "stop_id": 10003, "departure_time_am": "7:40:00", "departure_time_mid": "12:56:00", "departure_time_pm": "17:19:00", "stop_name": "Albany St opp Randall St", "stop_lat": 42.331591, "stop_lon": -71.076237 }, "geometry": { "type": "Point", "coordinates": [ -71.076237, 42.331591 ] } },
{ "type": "Feature", "properties": { "field_1": 5, "stop_sequence": 6, "stop_id": 57, "departure_time_am": "7:42:00", "departure_time_mid": "12:58:00", "departure_time_pm": "17:21:00", "stop_name": "Massachusetts Ave @ Albany St", "stop_lat": 42.333825, "stop_lon": -71.073541 }, "geometry": { "type": "Point", "coordinates": [ -71.073541, 42.333825 ] } },
{ "type": "Feature", "properties": { "field_1": 6, "stop_sequence": 7, "stop_id": 58, "departure_time_am": "7:43:00", "departure_time_mid": "12:59:00", "departure_time_pm": "17:22:00", "stop_name": "Massachusetts Ave @ Harrison Ave", "stop_lat": 42.334948, "stop_lon": -71.074931 }, "geometry": { "type": "Point", "coordinates": [ -71.074931, 42.334948 ] } },
{ "type": "Feature", "properties": { "field_1": 7, "stop_sequence": 8, "stop_id": 10590, "departure_time_am": "7:44:00", "departure_time_mid": "13:00:00", "departure_time_pm": "17:24:00", "stop_name": "Massachusetts Ave @ Washington St", "stop_lat": 42.336621, "stop_lon": -71.076956 }, "geometry": { "type": "Point", "coordinates": [ -71.076956, 42.336621 ] } },
{ "type": "Feature", "properties": { "field_1": 8, "stop_sequence": 9, "stop_id": 87, "departure_time_am": "7:47:00", "departure_time_mid": "13:03:00", "departure_time_pm": "17:27:00", "stop_name": "Massachusetts Ave @ Tremont St", "stop_lat": 42.339459, "stop_lon": -71.080362 }, "geometry": { "type": "Point", "coordinates": [ -71.080362, 42.339459 ] } },
{ "type": "Feature", "properties": { "field_1": 9, "stop_sequence": 10, "stop_id": 88, "departure_time_am": "7:48:00", "departure_time_mid": "13:04:00", "departure_time_pm": "17:28:00", "stop_name": "Massachusetts Ave @ Columbus Ave", "stop_lat": 42.340606, "stop_lon": -71.081617 }, "geometry": { "type": "Point", "coordinates": [ -71.081617, 42.340606 ] } },
{ "type": "Feature", "properties": { "field_1": 10, "stop_sequence": 11, "stop_id": 188, "departure_time_am": "7:49:00", "departure_time_mid": "13:05:00", "departure_time_pm": "17:29:00", "stop_name": "Massachusetts Ave @ Massachusetts Ave Station", "stop_lat": 42.341512, "stop_lon": -71.083423 }, "geometry": { "type": "Point", "coordinates": [ -71.083423, 42.341512 ] } },
{ "type": "Feature", "properties": { "field_1": 11, "stop_sequence": 12, "stop_id": 89, "departure_time_am": "7:50:00", "departure_time_mid": "13:06:00", "departure_time_pm": "17:30:00", "stop_name": "Massachusetts Ave @ St Botolph St", "stop_lat": 42.342303, "stop_lon": -71.084121 }, "geometry": { "type": "Point", "coordinates": [ -71.084121, 42.342303 ] } },
{ "type": "Feature", "properties": { "field_1": 12, "stop_sequence": 13, "stop_id": 91, "departure_time_am": "7:52:00", "departure_time_mid": "13:08:00", "departure_time_pm": "17:34:00", "stop_name": "Massachusetts Ave @ Clearway St", "stop_lat": 42.345331, "stop_lon": -71.086739 }, "geometry": { "type": "Point", "coordinates": [ -71.086739, 42.345331 ] } },
{ "type": "Feature", "properties": { "field_1": 13, "stop_sequence": 14, "stop_id": 93, "departure_time_am": "7:54:00", "departure_time_mid": "13:10:00", "departure_time_pm": "17:37:00", "stop_name": "Massachusetts Ave @ Newbury St", "stop_lat": 42.347888, "stop_lon": -71.087903 }, "geometry": { "type": "Point", "coordinates": [ -71.087903, 42.347888 ] } },
{ "type": "Feature", "properties": { "field_1": 14, "stop_sequence": 15, "stop_id": 95, "departure_time_am": "7:55:00", "departure_time_mid": "13:11:00", "departure_time_pm": "17:38:00", "stop_name": "Massachusetts Ave @ Beacon St", "stop_lat": 42.350773, "stop_lon": -71.089334 }, "geometry": { "type": "Point", "coordinates": [ -71.089334, 42.350773 ] } },
{ "type": "Feature", "properties": { "field_1": 15, "stop_sequence": 16, "stop_id": 96, "departure_time_am": "7:58:00", "departure_time_mid": "13:14:00", "departure_time_pm": "17:41:00", "stop_name": "Massachusetts Ave @ Memorial Dr", "stop_lat": 42.357613, "stop_lon": -71.092736 }, "geometry": { "type": "Point", "coordinates": [ -71.092736, 42.357613 ] } },
{ "type": "Feature", "properties": { "field_1": 16, "stop_sequence": 17, "stop_id": 97, "departure_time_am": "7:59:00", "departure_time_mid": "13:15:00", "departure_time_pm": "17:42:00", "stop_name": "77 Massachusetts Ave", "stop_lat": 42.359183, "stop_lon": -71.093543 }, "geometry": { "type": "Point", "coordinates": [ -71.093543, 42.359183 ] } },
{ "type": "Feature", "properties": { "field_1": 17, "stop_sequence": 18, "stop_id": 99, "departure_time_am": "8:00:00", "departure_time_mid": "13:16:00", "departure_time_pm": "17:44:00", "stop_name": "Massachusetts Ave @ Albany St", "stop_lat": 42.360758, "stop_lon": -71.095722 }, "geometry": { "type": "Point", "coordinates": [ -71.095722, 42.360758 ] } },
{ "type": "Feature", "properties": { "field_1": 18, "stop_sequence": 19, "stop_id": 101, "departure_time_am": "8:03:00", "departure_time_mid": "13:19:00", "departure_time_pm": "17:47:00", "stop_name": "Massachusetts Ave @ Sidney St", "stop_lat": 42.362988, "stop_lon": -71.099486 }, "geometry": { "type": "Point", "coordinates": [ -71.099486, 42.362988 ] } },
{ "type": "Feature", "properties": { "field_1": 19, "stop_sequence": 20, "stop_id": 102, "departure_time_am": "8:05:00", "departure_time_mid": "13:21:00", "departure_time_pm": "17:50:00", "stop_name": "Massachusetts Ave @ Prospect St", "stop_lat": 42.365486, "stop_lon": -71.103802 }, "geometry": { "type": "Point", "coordinates": [ -71.103802, 42.365486 ] } },
{ "type": "Feature", "properties": { "field_1": 20, "stop_sequence": 21, "stop_id": 104, "departure_time_am": "8:06:00", "departure_time_mid": "13:22:00", "departure_time_pm": "17:51:00", "stop_name": "Massachusetts Ave @ Bigelow St", "stop_lat": 42.366837, "stop_lon": -71.106017 }, "geometry": { "type": "Point", "coordinates": [ -71.106017, 42.366837 ] } },
{ "type": "Feature", "properties": { "field_1": 21, "stop_sequence": 22, "stop_id": 106, "departure_time_am": "8:07:00", "departure_time_mid": "13:23:00", "departure_time_pm": "17:53:00", "stop_name": "Massachusetts Ave @ Hancock St", "stop_lat": 42.368390, "stop_lon": -71.108618 }, "geometry": { "type": "Point", "coordinates": [ -71.108618, 42.36839 ] } },
{ "type": "Feature", "properties": { "field_1": 22, "stop_sequence": 23, "stop_id": 107, "departure_time_am": "8:08:00", "departure_time_mid": "13:24:00", "departure_time_pm": "17:54:00", "stop_name": "Massachusetts Ave @ Dana St", "stop_lat": 42.369265, "stop_lon": -71.110773 }, "geometry": { "type": "Point", "coordinates": [ -71.110773, 42.369265 ] } },
{ "type": "Feature", "properties": { "field_1": 23, "stop_sequence": 24, "stop_id": 108, "departure_time_am": "8:09:00", "departure_time_mid": "13:25:00", "departure_time_pm": "17:55:00", "stop_name": "Massachusetts Ave @ Trowbridge St", "stop_lat": 42.370270, "stop_lon": -71.112998 }, "geometry": { "type": "Point", "coordinates": [ -71.112998, 42.37027 ] } },
{ "type": "Feature", "properties": { "field_1": 24, "stop_sequence": 25, "stop_id": 109, "departure_time_am": "8:11:00", "departure_time_mid": "13:27:00", "departure_time_pm": "17:56:00", "stop_name": "Massachusetts Ave @ Bow St", "stop_lat": 42.372099, "stop_lon": -71.115371 }, "geometry": { "type": "Point", "coordinates": [ -71.115371, 42.372099 ] } },
{ "type": "Feature", "properties": { "field_1": 25, "stop_sequence": 26, "stop_id": 110, "departure_time_am": "8:12:00", "departure_time_mid": "13:28:00", "departure_time_pm": "17:57:00", "stop_name": "Massachusetts Ave @ Holyoke St", "stop_lat": 42.373259, "stop_lon": -71.118124 }, "geometry": { "type": "Point", "coordinates": [ -71.118124, 42.373259 ] } }
]
}
